{
    "273471": {
        "name": "Dignowity Hill-St. Paul Square",
        "city": "San Antonio",
        "county": "Bexar",
        "state": "TX",
        "lat": 29.42216,
        "lon": -98.479162,
        "walkscore": 57,
        "airbnb_count": 229,
        "other_count": 25,
        "avg_occupancy": 51.6376,
        "median_price": 262500,
        "sqft_price": 246.25
    },
    "271352": {
        "name": "Downtown",
        "city": "San Antonio",
        "county": "Bexar",
        "state": "TX",
        "lat": 29.424127,
        "lon": -98.487186,
        "walkscore": 74,
        "airbnb_count": 225,
        "other_count": 6,
        "avg_occupancy": 52.68,
        "median_price": 605000,
        "sqft_price": 369.23
    },
    "275804": {
        "name": "United Homeowners",
        "city": "San Antonio",
        "county": "Bexar",
        "state": "TX",
        "lat": 29.44015,
        "lon": -98.427296,
        "walkscore": 14,
        "airbnb_count": 210,
        "other_count": 0,
        "avg_occupancy": 56.5571,
        "median_price": 131000,
        "sqft_price": 113.72
    },
    "271349": {
        "name": "Dignowity Hill",
        "city": "San Antonio",
        "county": "Bexar",
        "state": "TX",
        "lat": 29.427419,
        "lon": -98.472334,
        "walkscore": 51,
        "airbnb_count": 208,
        "other_count": 3,
        "avg_occupancy": 53.5433,
        "median_price": 253750,
        "sqft_price": 211.3
    },
    "274033": {
        "name": "Historic Gardens",
        "city": "San Antonio",
        "county": "Bexar",
        "state": "TX",
        "lat": 29.415926,
        "lon": -98.474659,
        "walkscore": 45,
        "airbnb_count": 199,
        "other_count": 8,
        "avg_occupancy": 51.794,
        "median_price": 269950,
        "sqft_price": 165.95
    },
    "271360": {
        "name": "East Cesar Chavez",
        "city": "Austin",
        "county": "Travis",
        "state": "TX",
        "lat": 30.257782,
        "lon": -97.729723,
        "walkscore": 88,
        "airbnb_count": 395,
        "other_count": 25,
        "avg_occupancy": 58.6152,
        "median_price": 647500,
        "sqft_price": 717.92
    },
    "271303": {
        "name": "Bouldin",
        "city": "Austin",
        "county": "Travis",
        "state": "TX",
        "lat": 30.251526,
        "lon": -97.75729,
        "walkscore": 78,
        "airbnb_count": 323,
        "other_count": 39,
        "avg_occupancy": 65.387,
        "median_price": 767350,
        "sqft_price": 572.34
    },
    "271325": {
        "name": "Central East Austin",
        "city": "Austin",
        "county": "Travis",
        "state": "TX",
        "lat": 30.270654,
        "lon": -97.723717,
        "walkscore": 84,
        "airbnb_count": 321,
        "other_count": 13,
        "avg_occupancy": 60.7227,
        "median_price": 1025000,
        "sqft_price": 471.51
    },
    "271574": {
        "name": "South River City",
        "city": "Austin",
        "county": "Travis",
        "state": "TX",
        "lat": 30.247314,
        "lon": -97.744272,
        "walkscore": 66,
        "airbnb_count": 320,
        "other_count": 43,
        "avg_occupancy": 61.6281,
        "median_price": 961500,
        "sqft_price": 552.29
    },
    "271653": {
        "name": "Windsor Road",
        "city": "Austin",
        "county": "Travis",
        "state": "TX",
        "lat": 30.294407,
        "lon": -97.753689,
        "walkscore": 33,
        "airbnb_count": 237,
        "other_count": 30,
        "avg_occupancy": 48.5781,
        "median_price": 1062000,
        "sqft_price": 463.5
    },
    "422770": {
        "name": "Carter Park",
        "city": "Fort Worth",
        "county": "Tarrant",
        "state": "TX",
        "lat": 32.692178,
        "lon": -97.313003,
        "walkscore": 23,
        "airbnb_count": 139,
        "other_count": 4,
        "avg_occupancy": 54.9712,
        "median_price": 139900,
        "sqft_price": null
    },
    "233172": {
        "name": "Fairmount",
        "city": "Fort Worth",
        "county": "Tarrant",
        "state": "TX",
        "lat": 32.72435,
        "lon": -97.337655,
        "walkscore": 57,
        "airbnb_count": 106,
        "other_count": 51,
        "avg_occupancy": 53.0472,
        "median_price": 397000,
        "sqft_price": 231.18
    },
    "422844": {
        "name": "North Hi Mount",
        "city": "Fort Worth",
        "county": "Tarrant",
        "state": "TX",
        "lat": 32.748024,
        "lon": -97.374967,
        "walkscore": 67,
        "airbnb_count": 103,
        "other_count": 31,
        "avg_occupancy": 58.6408,
        "median_price": 459750,
        "sqft_price": 233.68
    },
    "422756": {
        "name": "Berkeley Place",
        "city": "Fort Worth",
        "county": "Tarrant",
        "state": "TX",
        "lat": 32.721106,
        "lon": -97.349569,
        "walkscore": 35,
        "airbnb_count": 102,
        "other_count": 5,
        "avg_occupancy": 53.1765,
        "median_price": 599000,
        "sqft_price": 233.27
    },
    "199281": {
        "name": "Arlington Heights",
        "city": "Fort Worth",
        "county": "Tarrant",
        "state": "TX",
        "lat": 32.740245,
        "lon": -97.386999,
        "walkscore": 65,
        "airbnb_count": 94,
        "other_count": 15,
        "avg_occupancy": 61.6383,
        "median_price": 349950,
        "sqft_price": 220.49
    },
    "276189": {
        "name": "Arts District",
        "city": "Dallas",
        "county": "Dallas",
        "state": "TX",
        "lat": 32.789649,
        "lon": -96.79842,
        "walkscore": 85,
        "airbnb_count": 253,
        "other_count": 464,
        "avg_occupancy": 57.0553,
        "median_price": 515000,
        "sqft_price": 365.29
    },
    "273854": {
        "name": "Government District",
        "city": "Dallas",
        "county": "Dallas",
        "state": "TX",
        "lat": 32.777394,
        "lon": -96.800519,
        "walkscore": 89,
        "airbnb_count": 236,
        "other_count": 29,
        "avg_occupancy": 47.8559,
        "median_price": 254950,
        "sqft_price": 258.16
    },
    "273707": {
        "name": "Farmers Market District",
        "city": "Dallas",
        "county": "Dallas",
        "state": "TX",
        "lat": 32.77811,
        "lon": -96.789385,
        "walkscore": 71,
        "airbnb_count": 231,
        "other_count": 116,
        "avg_occupancy": 50.026,
        "median_price": 420000,
        "sqft_price": 201.7
    },
    "273261": {
        "name": "City Center District",
        "city": "Dallas",
        "county": "Dallas",
        "state": "TX",
        "lat": 32.786924,
        "lon": -96.79673,
        "walkscore": 90,
        "airbnb_count": 229,
        "other_count": 32,
        "avg_occupancy": 60.1397,
        "median_price": 399000,
        "sqft_price": 236.95
    },
    "272701": {
        "name": "M Streets",
        "city": "Dallas",
        "county": "Dallas",
        "state": "TX",
        "lat": 32.822061,
        "lon": -96.776961,
        "walkscore": 53,
        "airbnb_count": 198,
        "other_count": 605,
        "avg_occupancy": 47.1869,
        "median_price": 461000,
        "sqft_price": 264.09
    },
    "271389": {
        "name": "Fourth Ward",
        "city": "Houston",
        "county": "Harris",
        "state": "TX",
        "lat": 29.757098,
        "lon": -95.379766,
        "walkscore": 78,
        "airbnb_count": 190,
        "other_count": 44,
        "avg_occupancy": 49.5474,
        "median_price": 429000,
        "sqft_price": 223.72
    },
    "403557": {
        "name": "Montrose",
        "city": "Houston",
        "county": "Harris",
        "state": "TX",
        "lat": 29.746891,
        "lon": -95.396128,
        "walkscore": 82,
        "airbnb_count": 185,
        "other_count": 26,
        "avg_occupancy": 57.4595,
        "median_price": 661950,
        "sqft_price": 280.2
    },
    "271469": {
        "name": "Midtown",
        "city": "Houston",
        "county": "Harris",
        "state": "TX",
        "lat": 29.743116,
        "lon": -95.375033,
        "walkscore": 81,
        "airbnb_count": 170,
        "other_count": 45,
        "avg_occupancy": 59.6588,
        "median_price": 374900,
        "sqft_price": 180.51
    },
    "271298": {
        "name": "Binz",
        "city": "Houston",
        "county": "Harris",
        "state": "TX",
        "lat": 29.724696,
        "lon": -95.383169,
        "walkscore": 76,
        "airbnb_count": 163,
        "other_count": 51,
        "avg_occupancy": 46.9571,
        "median_price": 425000,
        "sqft_price": 208.01
    },
    "274488": {
        "name": "Medical Center Area",
        "city": "Houston",
        "county": "Harris",
        "state": "TX",
        "lat": 29.709901,
        "lon": -95.396508,
        "walkscore": 58,
        "airbnb_count": 125,
        "other_count": 6,
        "avg_occupancy": 44.152,
        "median_price": 514950,
        "sqft_price": 184.3
    },
    "274853": {
        "name": "Oakland Ave-Harrison St",
        "city": "Oakland",
        "county": "Alameda",
        "state": "CA",
        "lat": 37.818422,
        "lon": -122.258283,
        "walkscore": 84,
        "airbnb_count": 154,
        "other_count": 17,
        "avg_occupancy": 62.2532,
        "median_price": 484000,
        "sqft_price": 728.1
    },
    "268153": {
        "name": "Fairview Park",
        "city": "Oakland",
        "county": "Alameda",
        "state": "CA",
        "lat": 37.847508,
        "lon": -122.257011,
        "walkscore": 85,
        "airbnb_count": 154,
        "other_count": 0,
        "avg_occupancy": 61.9545,
        "median_price": 650000,
        "sqft_price": null
    },
    "268456": {
        "name": "Santa Fe",
        "city": "Oakland",
        "county": "Alameda",
        "state": "CA",
        "lat": 37.842128,
        "lon": -122.273305,
        "walkscore": 75,
        "airbnb_count": 147,
        "other_count": 0,
        "avg_occupancy": 66.9048,
        "median_price": 1398000,
        "sqft_price": 523.2
    },
    "274232": {
        "name": "Lake Merritt",
        "city": "Oakland",
        "county": "Alameda",
        "state": "CA",
        "lat": 37.807743,
        "lon": -122.255394,
        "walkscore": 85,
        "airbnb_count": 145,
        "other_count": 9,
        "avg_occupancy": 63.269,
        "median_price": 743500,
        "sqft_price": 569.75
    },
    "275678": {
        "name": "Temescal",
        "city": "Oakland",
        "county": "Alameda",
        "state": "CA",
        "lat": 37.832532,
        "lon": -122.259819,
        "walkscore": 90,
        "airbnb_count": 145,
        "other_count": 5,
        "avg_occupancy": 62.6207,
        "median_price": 1274000,
        "sqft_price": 646.93
    },
    "115295": {
        "name": "Glendale",
        "city": "Los Angeles",
        "county": "Los Angeles",
        "state": "CA",
        "lat": 34.13759,
        "lon": -118.297695,
        "walkscore": 5,
        "airbnb_count": 498,
        "other_count": 115,
        "avg_occupancy": 69.5723,
        "median_price": 1899000,
        "sqft_price": 717.33
    },
    "32059": {
        "name": "Hollywood",
        "city": "Los Angeles",
        "county": "Los Angeles",
        "state": "CA",
        "lat": 34.090929,
        "lon": -118.3244,
        "walkscore": 84,
        "airbnb_count": 310,
        "other_count": 562,
        "avg_occupancy": 64.3065,
        "median_price": 1199000,
        "sqft_price": 709.37
    },
    "268404": {
        "name": "Pico-Union",
        "city": "Los Angeles",
        "county": "Los Angeles",
        "state": "CA",
        "lat": 34.048072,
        "lon": -118.274808,
        "walkscore": 89,
        "airbnb_count": 231,
        "other_count": 41,
        "avg_occupancy": 63.9481,
        "median_price": 1295000,
        "sqft_price": 813.75
    },
    "276450": {
        "name": "Mid City West",
        "city": "Los Angeles",
        "county": "Los Angeles",
        "state": "CA",
        "lat": 34.07418,
        "lon": -118.367366,
        "walkscore": 90,
        "airbnb_count": 215,
        "other_count": 335,
        "avg_occupancy": 65.6233,
        "median_price": 1955000,
        "sqft_price": 929.6
    },
    "275024": {
        "name": "Pico-Robertson",
        "city": "Los Angeles",
        "county": "Los Angeles",
        "state": "CA",
        "lat": 34.053022,
        "lon": -118.383312,
        "walkscore": 95,
        "airbnb_count": 187,
        "other_count": 1297,
        "avg_occupancy": 49.6096,
        "median_price": 1322000,
        "sqft_price": 775.33
    },
    "417519": {
        "name": "Corona Heights",
        "city": "San Francisco",
        "county": "San Francisco",
        "state": "CA",
        "lat": 37.762764,
        "lon": -122.440979,
        "walkscore": 89,
        "airbnb_count": 244,
        "other_count": 7,
        "avg_occupancy": 60.6148,
        "median_price": 1587000,
        "sqft_price": 1106.89
    },
    "417522": {
        "name": "North Panhandle",
        "city": "San Francisco",
        "county": "San Francisco",
        "state": "CA",
        "lat": 37.775355,
        "lon": -122.446049,
        "walkscore": 91,
        "airbnb_count": 215,
        "other_count": 13,
        "avg_occupancy": 62.9535,
        "median_price": 1180000,
        "sqft_price": 1054.46
    },
    "118904": {
        "name": "Western Addition",
        "city": "San Francisco",
        "county": "San Francisco",
        "state": "CA",
        "lat": 37.781412,
        "lon": -122.43151,
        "walkscore": 96,
        "airbnb_count": 214,
        "other_count": 0,
        "avg_occupancy": 63.5888,
        "median_price": 828000,
        "sqft_price": 814.88
    },
    "268201": {
        "name": "Haight Ashbury",
        "city": "San Francisco",
        "county": "San Francisco",
        "state": "CA",
        "lat": 37.768094,
        "lon": -122.448285,
        "walkscore": 96,
        "airbnb_count": 201,
        "other_count": 22,
        "avg_occupancy": 61.8657,
        "median_price": 1475000,
        "sqft_price": 1154.84
    },
    "274552": {
        "name": "Mission",
        "city": "San Francisco",
        "county": "San Francisco",
        "state": "CA",
        "lat": 37.759918,
        "lon": -122.415902,
        "walkscore": 91,
        "airbnb_count": 188,
        "other_count": 37,
        "avg_occupancy": 60.9202,
        "median_price": 1449000,
        "sqft_price": 1039.65
    },
    "273808": {
        "name": "Gaslamp Quarter",
        "city": "San Diego",
        "county": "San Diego",
        "state": "CA",
        "lat": 32.711433,
        "lon": -117.160219,
        "walkscore": 95,
        "airbnb_count": 247,
        "other_count": 52,
        "avg_occupancy": 46.4372,
        "median_price": 695000,
        "sqft_price": 678.39
    },
    "268215": {
        "name": "Horton Plaza",
        "city": "San Diego",
        "county": "San Diego",
        "state": "CA",
        "lat": 32.714146,
        "lon": -117.163782,
        "walkscore": 97,
        "airbnb_count": 234,
        "other_count": 27,
        "avg_occupancy": 47.6966,
        "median_price": 1000000,
        "sqft_price": 736.68
    },
    "273355": {
        "name": "Cortez Hill",
        "city": "San Diego",
        "county": "San Diego",
        "state": "CA",
        "lat": 32.722279,
        "lon": -117.156819,
        "walkscore": 90,
        "airbnb_count": 212,
        "other_count": 38,
        "avg_occupancy": 60.8868,
        "median_price": 414500,
        "sqft_price": 483.76
    },
    "117156": {
        "name": "Pacific Beach",
        "city": "San Diego",
        "county": "San Diego",
        "state": "CA",
        "lat": 32.80483,
        "lon": -117.237967,
        "walkscore": 71,
        "airbnb_count": 176,
        "other_count": 146,
        "avg_occupancy": 52.4716,
        "median_price": 999000,
        "sqft_price": 833.55
    },
    "268012": {
        "name": "Balboa Park",
        "city": "San Diego",
        "county": "San Diego",
        "state": "CA",
        "lat": 32.730371,
        "lon": -117.146575,
        "walkscore": 35,
        "airbnb_count": 157,
        "other_count": 6,
        "avg_occupancy": 49.8981,
        "median_price": 529999,
        "sqft_price": 520.74
    },
    "416300": {
        "name": "Freeman Island",
        "city": "Long Beach",
        "county": "Los Angeles",
        "state": "CA",
        "lat": 33.741496,
        "lon": -118.16248,
        "walkscore": 0,
        "airbnb_count": 296,
        "other_count": 0,
        "avg_occupancy": 71.4561,
        "median_price": 519757,
        "sqft_price": null
    },
    "416314": {
        "name": "Saint Mary's",
        "city": "Long Beach",
        "county": "Los Angeles",
        "state": "CA",
        "lat": 33.780785,
        "lon": -118.183681,
        "walkscore": 88,
        "airbnb_count": 241,
        "other_count": 9,
        "avg_occupancy": 53.1535,
        "median_price": 999500,
        "sqft_price": 349.31
    },
    "416306": {
        "name": "East Village",
        "city": "Long Beach",
        "county": "Los Angeles",
        "state": "CA",
        "lat": 33.772632,
        "lon": -118.184178,
        "walkscore": 94,
        "airbnb_count": 239,
        "other_count": 39,
        "avg_occupancy": 56.4519,
        "median_price": 389900,
        "sqft_price": 496.26
    },
    "273486": {
        "name": "Downtown",
        "city": "Long Beach",
        "county": "Los Angeles",
        "state": "CA",
        "lat": 33.766596,
        "lon": -118.193824,
        "walkscore": 88,
        "airbnb_count": 205,
        "other_count": 68,
        "avg_occupancy": 51.3561,
        "median_price": 499999,
        "sqft_price": 549.28
    },
    "416302": {
        "name": "Alamitos Beach",
        "city": "Long Beach",
        "county": "Los Angeles",
        "state": "CA",
        "lat": 33.766154,
        "lon": -118.174135,
        "walkscore": 74,
        "airbnb_count": 199,
        "other_count": 28,
        "avg_occupancy": 56.8844,
        "median_price": 869000,
        "sqft_price": 586.96
    },
    "272845": {
        "name": "Bal Harbour",
        "city": "Fort Lauderdale",
        "county": "Broward",
        "state": "FL",
        "lat": 26.152923,
        "lon": -80.117104,
        "walkscore": 69,
        "airbnb_count": 117,
        "other_count": 6,
        "avg_occupancy": 48.3846,
        "median_price": 769400,
        "sqft_price": 452.89
    },
    "269088": {
        "name": "Middle River Terrace",
        "city": "Fort Lauderdale",
        "county": "Broward",
        "state": "FL",
        "lat": 26.145263,
        "lon": -80.135855,
        "walkscore": 64,
        "airbnb_count": 114,
        "other_count": 41,
        "avg_occupancy": 49.3596,
        "median_price": 414600,
        "sqft_price": 281.6
    },
    "269147": {
        "name": "Poinsettia Heights",
        "city": "Fort Lauderdale",
        "county": "Broward",
        "state": "FL",
        "lat": 26.150204,
        "lon": -80.125428,
        "walkscore": 51,
        "airbnb_count": 111,
        "other_count": 21,
        "avg_occupancy": 45.6216,
        "median_price": 499000,
        "sqft_price": 330.14
    },
    "269049": {
        "name": "Lake Ridge",
        "city": "Fort Lauderdale",
        "county": "Broward",
        "state": "FL",
        "lat": 26.139869,
        "lon": -80.129327,
        "walkscore": 77,
        "airbnb_count": 101,
        "other_count": 82,
        "avg_occupancy": 46.8515,
        "median_price": 448750,
        "sqft_price": 265.54
    },
    "269064": {
        "name": "Laudergate Isles",
        "city": "Fort Lauderdale",
        "county": "Broward",
        "state": "FL",
        "lat": 26.142297,
        "lon": -80.119273,
        "walkscore": 78,
        "airbnb_count": 97,
        "other_count": 19,
        "avg_occupancy": 45.8866,
        "median_price": 569950,
        "sqft_price": 312.9
    },
    "269011": {
        "name": "Holiday Harbors",
        "city": "Jacksonville",
        "county": "Duval",
        "state": "FL",
        "lat": 30.300566,
        "lon": -81.433156,
        "walkscore": 2,
        "airbnb_count": 131,
        "other_count": 43,
        "avg_occupancy": 59.4504,
        "median_price": 359000,
        "sqft_price": 211.17
    },
    "269165": {
        "name": "Robinson's Addition",
        "city": "Jacksonville",
        "county": "Duval",
        "state": "FL",
        "lat": 30.336035,
        "lon": -81.695712,
        "walkscore": 35,
        "airbnb_count": 123,
        "other_count": 12,
        "avg_occupancy": 67.9675,
        "median_price": 89900,
        "sqft_price": 96.58
    },
    "268927": {
        "name": "College Gardens",
        "city": "Jacksonville",
        "county": "Duval",
        "state": "FL",
        "lat": 30.343015,
        "lon": -81.694375,
        "walkscore": 28,
        "airbnb_count": 108,
        "other_count": 10,
        "avg_occupancy": 68.9815,
        "median_price": 75000,
        "sqft_price": 73.66
    },
    "273667": {
        "name": "Fairfield",
        "city": "Jacksonville",
        "county": "Duval",
        "state": "FL",
        "lat": 30.351152,
        "lon": -81.628436,
        "walkscore": 25,
        "airbnb_count": 71,
        "other_count": 6,
        "avg_occupancy": 67.3803,
        "median_price": 70000,
        "sqft_price": 58.59
    },
    "274173": {
        "name": "Kennel Club",
        "city": "Jacksonville",
        "county": "Duval",
        "state": "FL",
        "lat": 30.347622,
        "lon": -81.705245,
        "walkscore": 14,
        "airbnb_count": 66,
        "other_count": 4,
        "avg_occupancy": 67.2424,
        "median_price": 82500,
        "sqft_price": 74.15
    },
    "124197": {
        "name": "Drew Park",
        "city": "Tampa",
        "county": "Hillsborough",
        "state": "FL",
        "lat": 27.986044,
        "lon": -82.516656,
        "walkscore": 48,
        "airbnb_count": 197,
        "other_count": 145,
        "avg_occupancy": 58.6091,
        "median_price": 264000,
        "sqft_price": 182.6
    },
    "269130": {
        "name": "Palmetto Beach",
        "city": "Tampa",
        "county": "Hillsborough",
        "state": "FL",
        "lat": 27.930219,
        "lon": -82.424083,
        "walkscore": 1,
        "airbnb_count": 98,
        "other_count": 31,
        "avg_occupancy": 52.6122,
        "median_price": 199000,
        "sqft_price": null
    },
    "272893": {
        "name": "Beasley",
        "city": "Tampa",
        "county": "Hillsborough",
        "state": "FL",
        "lat": 27.971055,
        "lon": -82.397556,
        "walkscore": 23,
        "airbnb_count": 77,
        "other_count": 31,
        "avg_occupancy": 57.4675,
        "median_price": 142500,
        "sqft_price": 121.46
    },
    "273739": {
        "name": "Florence",
        "city": "Tampa",
        "county": "Hillsborough",
        "state": "FL",
        "lat": 27.971354,
        "lon": -82.397891,
        "walkscore": 15,
        "airbnb_count": 76,
        "other_count": 20,
        "avg_occupancy": 54.5395,
        "median_price": 203000,
        "sqft_price": 177.45
    },
    "274847": {
        "name": "Oakford Park",
        "city": "Tampa",
        "county": "Hillsborough",
        "state": "FL",
        "lat": 27.950663,
        "lon": -82.495509,
        "walkscore": 72,
        "airbnb_count": 75,
        "other_count": 7,
        "avg_occupancy": 49.4933,
        "median_price": 544600,
        "sqft_price": 226.88
    },
    "806852": {
        "name": "Gulf Beach",
        "city": "Pensacola",
        "county": null,
        "state": "FL",
        "lat": 30.302658,
        "lon": -87.440565,
        "walkscore": 6,
        "airbnb_count": 246,
        "other_count": 6,
        "avg_occupancy": 58.2033,
        "median_price": 575000,
        "sqft_price": 355.74
    },
    "806850": {
        "name": "Englewood",
        "city": "Pensacola",
        "county": null,
        "state": "FL",
        "lat": 30.438083,
        "lon": -87.244621,
        "walkscore": 48,
        "airbnb_count": 198,
        "other_count": 0,
        "avg_occupancy": 67.6768,
        "median_price": 115000,
        "sqft_price": null
    },
    "806851": {
        "name": "Palafox",
        "city": "Pensacola",
        "county": null,
        "state": "FL",
        "lat": 30.451633,
        "lon": -87.242579,
        "walkscore": 26,
        "airbnb_count": 185,
        "other_count": 0,
        "avg_occupancy": 66.8649,
        "median_price": 81250,
        "sqft_price": 77.03
    },
    "764088": {
        "name": "Brittany Forge",
        "city": "Pensacola",
        "county": null,
        "state": "FL",
        "lat": 30.462924,
        "lon": -87.173597,
        "walkscore": 0,
        "airbnb_count": 132,
        "other_count": 2,
        "avg_occupancy": 67.8409,
        "median_price": 276950,
        "sqft_price": 140.32
    },
    "124368": {
        "name": "Ferry Pass",
        "city": "Pensacola",
        "county": "Escambia",
        "state": "FL",
        "lat": 30.421309,
        "lon": -87.2169149,
        "walkscore": 66,
        "airbnb_count": 124,
        "other_count": 288,
        "avg_occupancy": 64.1613,
        "median_price": 444900,
        "sqft_price": 211.51
    },
    "417159": {
        "name": "Woodlawn Oaks",
        "city": "Saint Petersburg",
        "county": "Pinellas",
        "state": "FL",
        "lat": 27.786525,
        "lon": -82.658302,
        "walkscore": 52,
        "airbnb_count": 51,
        "other_count": 15,
        "avg_occupancy": 61.0392,
        "median_price": 147000,
        "sqft_price": null
    },
    "417189": {
        "name": "Harbor Isle",
        "city": "Saint Petersburg",
        "county": "Pinellas",
        "state": "FL",
        "lat": 27.839306,
        "lon": -82.613463,
        "walkscore": 1,
        "airbnb_count": 46,
        "other_count": 2,
        "avg_occupancy": 61.7609,
        "median_price": 820000,
        "sqft_price": null
    },
    "417154": {
        "name": "Methodist Town",
        "city": "Saint Petersburg",
        "county": "Pinellas",
        "state": "FL",
        "lat": 27.774725,
        "lon": -82.650739,
        "walkscore": 77,
        "airbnb_count": 45,
        "other_count": 24,
        "avg_occupancy": 58.2222,
        "median_price": 712000,
        "sqft_price": 329.94
    },
    "417161": {
        "name": "Crescent Lake",
        "city": "Saint Petersburg",
        "county": "Pinellas",
        "state": "FL",
        "lat": 27.78796,
        "lon": -82.642609,
        "walkscore": 64,
        "airbnb_count": 44,
        "other_count": 9,
        "avg_occupancy": 60.3636,
        "median_price": 939000,
        "sqft_price": null
    },
    "417160": {
        "name": "Euclid-St Pauls",
        "city": "Saint Petersburg",
        "county": "Pinellas",
        "state": "FL",
        "lat": 27.78657,
        "lon": -82.650829,
        "walkscore": 64,
        "airbnb_count": 43,
        "other_count": 23,
        "avg_occupancy": 58.9767,
        "median_price": 525000,
        "sqft_price": null
    },
    "270895": {
        "name": "NoHo",
        "city": "New York",
        "county": "New York",
        "state": "NY",
        "lat": 40.72756,
        "lon": -73.993719,
        "walkscore": 100,
        "airbnb_count": 364,
        "other_count": 261,
        "avg_occupancy": 63.9451,
        "median_price": 1995000,
        "sqft_price": null
    },
    "270842": {
        "name": "Garment District",
        "city": "New York",
        "county": "New York",
        "state": "NY",
        "lat": 40.75182,
        "lon": -73.988151,
        "walkscore": 100,
        "airbnb_count": 301,
        "other_count": 95,
        "avg_occupancy": 60.6013,
        "median_price": 1650000,
        "sqft_price": 1690.92
    },
    "270953": {
        "name": "Turtle Bay",
        "city": "New York",
        "county": "New York",
        "state": "NY",
        "lat": 40.753292,
        "lon": -73.969031,
        "walkscore": 100,
        "airbnb_count": 254,
        "other_count": 298,
        "avg_occupancy": 54.4055,
        "median_price": 905000,
        "sqft_price": 1438.31
    },
    "403221": {
        "name": "Prospect Lefferts Gardens",
        "city": "New York",
        "county": "Kings",
        "state": "NY",
        "lat": 40.65908,
        "lon": -73.955115,
        "walkscore": 95,
        "airbnb_count": 246,
        "other_count": 149,
        "avg_occupancy": 36.6301,
        "median_price": 1100000,
        "sqft_price": 631.62
    },
    "270946": {
        "name": "Sutton Place",
        "city": "New York",
        "county": "New York",
        "state": "NY",
        "lat": 40.758477,
        "lon": -73.964818,
        "walkscore": 100,
        "airbnb_count": 243,
        "other_count": 636,
        "avg_occupancy": 48.2305,
        "median_price": 1350000,
        "sqft_price": 1545.39
    },
    "270798": {
        "name": "Babcock",
        "city": "Buffalo",
        "county": "Erie",
        "state": "NY",
        "lat": 42.876415,
        "lon": -78.829439,
        "walkscore": 49,
        "airbnb_count": 183,
        "other_count": 0,
        "avg_occupancy": 54.1366,
        "median_price": 84950,
        "sqft_price": 37.53
    },
    "270807": {
        "name": "Bryant",
        "city": "Buffalo",
        "county": "Erie",
        "state": "NY",
        "lat": 42.906409,
        "lon": -78.876184,
        "walkscore": 85,
        "airbnb_count": 180,
        "other_count": 30,
        "avg_occupancy": 56.4667,
        "median_price": 199900,
        "sqft_price": 235.14
    },
    "270840": {
        "name": "Front Park",
        "city": "Buffalo",
        "county": "Erie",
        "state": "NY",
        "lat": 42.905765,
        "lon": -78.889424,
        "walkscore": 87,
        "airbnb_count": 160,
        "other_count": 12,
        "avg_occupancy": 56.6188,
        "median_price": 199000,
        "sqft_price": 104.95
    },
    "272750": {
        "name": "Allen",
        "city": "Buffalo",
        "county": "Erie",
        "state": "NY",
        "lat": 42.897709,
        "lon": -78.876489,
        "walkscore": 94,
        "airbnb_count": 142,
        "other_count": 36,
        "avg_occupancy": 54.9718,
        "median_price": 219900,
        "sqft_price": 175.14
    },
    "273455": {
        "name": "Delaware-West Ferry",
        "city": "Buffalo",
        "county": "Erie",
        "state": "NY",
        "lat": 42.917359,
        "lon": -78.866819,
        "walkscore": 69,
        "airbnb_count": 129,
        "other_count": 16,
        "avg_occupancy": 52.7597,
        "median_price": 289900,
        "sqft_price": 246.94
    },
    "343878": {
        "name": "Pearl-Meigs-Monroe",
        "city": "Rochester",
        "county": "Monroe County",
        "state": "NY",
        "lat": 43.147698,
        "lon": -77.596483,
        "walkscore": 93,
        "airbnb_count": 98,
        "other_count": 9,
        "avg_occupancy": 61.2245,
        "median_price": 191950,
        "sqft_price": 110.92
    },
    "343912": {
        "name": "South Wedge",
        "city": "Rochester",
        "county": "Monroe County",
        "state": "NY",
        "lat": 43.144733,
        "lon": -77.605988,
        "walkscore": 86,
        "airbnb_count": 88,
        "other_count": 20,
        "avg_occupancy": 62.8182,
        "median_price": 209900,
        "sqft_price": 95.27
    },
    "343893": {
        "name": "Swillburg",
        "city": "Rochester",
        "county": "Monroe County",
        "state": "NY",
        "lat": 43.138548,
        "lon": -77.592158,
        "walkscore": 81,
        "airbnb_count": 79,
        "other_count": 22,
        "avg_occupancy": 60.3544,
        "median_price": 200000,
        "sqft_price": 104.31
    },
    "343894": {
        "name": "Ellwanger-Barry",
        "city": "Rochester",
        "county": "Monroe County",
        "state": "NY",
        "lat": 43.136337,
        "lon": -77.600833,
        "walkscore": 80,
        "airbnb_count": 79,
        "other_count": 3,
        "avg_occupancy": 59.9494,
        "median_price": 189900,
        "sqft_price": 124.34
    },
    "343908": {
        "name": "Park Avenue",
        "city": "Rochester",
        "county": "Monroe County",
        "state": "NY",
        "lat": 43.147289,
        "lon": -77.576488,
        "walkscore": 77,
        "airbnb_count": 76,
        "other_count": 95,
        "avg_occupancy": 60.3684,
        "median_price": 299900,
        "sqft_price": 128.31
    },
    "342690": {
        "name": "Center Square",
        "city": "Albany",
        "county": "Albany",
        "state": "NY",
        "lat": 42.653258,
        "lon": -73.764419,
        "walkscore": 93,
        "airbnb_count": 75,
        "other_count": 3,
        "avg_occupancy": 62.64,
        "median_price": 272500,
        "sqft_price": 129.02
    },
    "342684": {
        "name": "Park South",
        "city": "Albany",
        "county": "Albany",
        "state": "NY",
        "lat": 42.654118,
        "lon": -73.773512,
        "walkscore": 82,
        "airbnb_count": 74,
        "other_count": 7,
        "avg_occupancy": 64.7432,
        "median_price": 255950,
        "sqft_price": 96.09
    },
    "342689": {
        "name": "Central Avenue",
        "city": "Albany",
        "county": "Albany",
        "state": "NY",
        "lat": 42.658212,
        "lon": -73.764816,
        "walkscore": 95,
        "airbnb_count": 73,
        "other_count": 6,
        "avg_occupancy": 59.2466,
        "median_price": 154500,
        "sqft_price": 60.55
    },
    "342678": {
        "name": "Sheridan Hollow",
        "city": "Albany",
        "county": "Albany",
        "state": "NY",
        "lat": 42.657516,
        "lon": -73.757996,
        "walkscore": 88,
        "airbnb_count": 66,
        "other_count": 7,
        "avg_occupancy": 60.0,
        "median_price": 217450,
        "sqft_price": 128.55
    },
    "342685": {
        "name": "Mansion Area",
        "city": "Albany",
        "county": "Albany",
        "state": "NY",
        "lat": 42.645251,
        "lon": -73.758269,
        "walkscore": 91,
        "airbnb_count": 64,
        "other_count": 9,
        "avg_occupancy": 62.5938,
        "median_price": 149900,
        "sqft_price": 75.6
    },
    "274643": {
        "name": "Near Eastside",
        "city": "Syracuse",
        "county": "Onondaga",
        "state": "NY",
        "lat": 43.049515,
        "lon": -76.129859,
        "walkscore": 81,
        "airbnb_count": 45,
        "other_count": 2,
        "avg_occupancy": 59.8444,
        "median_price": 175000,
        "sqft_price": 126.48
    },
    "275818": {
        "name": "University Hill",
        "city": "Syracuse",
        "county": "Onondaga",
        "state": "NY",
        "lat": 43.04,
        "lon": -76.135699,
        "walkscore": 87,
        "airbnb_count": 45,
        "other_count": 9,
        "avg_occupancy": 58.9333,
        "median_price": 441585,
        "sqft_price": null
    },
    "274645": {
        "name": "Near Northeast",
        "city": "Syracuse",
        "county": "Onondaga",
        "state": "NY",
        "lat": 43.057465,
        "lon": -76.140714,
        "walkscore": 76,
        "airbnb_count": 42,
        "other_count": 3,
        "avg_occupancy": 59.5238,
        "median_price": 84900,
        "sqft_price": 87.33
    },
    "276644": {
        "name": "Wescott",
        "city": "Syracuse",
        "county": "Onondaga",
        "state": "NY",
        "lat": 43.04109,
        "lon": -76.121704,
        "walkscore": 79,
        "airbnb_count": 39,
        "other_count": 6,
        "avg_occupancy": 60.3077,
        "median_price": 177400,
        "sqft_price": 84.81
    },
    "274314": {
        "name": "Lincoln Park",
        "city": "Syracuse",
        "county": "Onondaga",
        "state": "NY",
        "lat": 43.058604,
        "lon": -76.127179,
        "walkscore": 55,
        "airbnb_count": 37,
        "other_count": 6,
        "avg_occupancy": 58.5405,
        "median_price": 120000,
        "sqft_price": 76.41
    },
    "403138": {
        "name": "Lady Bird Johnson Park",
        "city": "Washington",
        "county": "District of Columbia",
        "state": "DC",
        "lat": 38.880628,
        "lon": -77.054984,
        "walkscore": 9,
        "airbnb_count": 477,
        "other_count": 329,
        "avg_occupancy": 68.6897,
        "median_price": 529000,
        "sqft_price": null
    },
    "403491": {
        "name": "Sursum Corda Cooperative",
        "city": "Washington",
        "county": "District of Columbia",
        "state": "DC",
        "lat": 38.904914,
        "lon": -77.010625,
        "walkscore": 94,
        "airbnb_count": 316,
        "other_count": 13,
        "avg_occupancy": 69.5791,
        "median_price": 749900,
        "sqft_price": 662.17
    },
    "121750": {
        "name": "Ledroit Park",
        "city": "Washington",
        "county": "District of Columbia",
        "state": "DC",
        "lat": 38.916935,
        "lon": -77.018105,
        "walkscore": 84,
        "airbnb_count": 283,
        "other_count": 7,
        "avg_occupancy": 69.6396,
        "median_price": 875000,
        "sqft_price": 623.58
    },
    "403490": {
        "name": "NoMa",
        "city": "Washington",
        "county": "District of Columbia",
        "state": "DC",
        "lat": 38.901884,
        "lon": -77.007827,
        "walkscore": 95,
        "airbnb_count": 272,
        "other_count": 54,
        "avg_occupancy": 69.8051,
        "median_price": 862450,
        "sqft_price": 653.98
    },
    "403492": {
        "name": "Swampoodle",
        "city": "Washington",
        "county": "District of Columbia",
        "state": "DC",
        "lat": 38.895782,
        "lon": -77.010958,
        "walkscore": 94,
        "airbnb_count": 255,
        "other_count": 99,
        "avg_occupancy": 69.9882,
        "median_price": 299985,
        "sqft_price": 667.76
    }
}